[
  {
    "id": "NAM",
    "label": "North America",
    "type": "region",
    "lat": 40.0,
    "lon": -100.0,
    "children": [
      {
        "id": "NAM",
        "label": "North America",
        "type": "subregion",
        "lat": 40.0,
        "lon": -100.0,
        "children": [      
          {
            "id": "US GOM",
            "label": "USA-GOM",
            "type": "country",
            "lat": null,
            "lon": null
          },
          {
            "id": "US Land",
            "label": "USA-Land",
            "type": "country",
            "lat": null,
            "lon": null
          },
          {
            "id": "Canada",
            "label": "Canada",
            "type": "country",
            "lat": null,
            "lon": null
          }
        ]
      }
    ]
  },
  {
    "id": "LAM",
    "label": "Latin America",
    "type": "region",
    "lat": -15.0,
    "lon": -60.0,
    "children": [
      {
        "id": "LAM",
        "label": "Latin America",
        "type": "subregion",
        "lat": -15.0,
        "lon": -60.0,
        "children": [
          {
            "id": "Mexico",
            "label": "Mexico",
            "type": "country",
            "lat": null,
            "lon": null
          },
          {
            "id": "Argentina",
            "label": "Argentina",
            "type": "country",
            "lat": null,
            "lon": null
          },
          {
            "id": "Brazil",
            "label": "Brazil",
            "type": "country",
            "lat": null,
            "lon": null
          },
          {
            "id": "Colombia",
            "label": "Colombia",
            "type": "country",
            "lat": null,
            "lon": null
          },
          {
            "id": "Venezuela",
            "label": "Venezuela",
            "type": "country",
            "lat": null,
            "lon": null
          },
          {
            "id": "Ecuador",
            "label": "Ecuador",
            "type": "country",
            "lat": null,
            "lon": null
          },
          {
            "id": "Trinidad & Tobago",
            "label": "Trinidad & Tobago",
            "type": "country",
            "lat": null,
            "lon": null
          },
          {
            "id": "Guyana",
            "label": "Guyana",
            "type": "country",
            "lat": null,
            "lon": null
          },
          {
            "id": "Suriname",
            "label": "Suriname",
            "type": "country",
            "lat": null,
            "lon": null
          },
          {
            "id": "Chile",
            "label": "Chile",
            "type": "country",
            "lat": null,
            "lon": null
          },
          {
            "id": "Bolivia",
            "label": "Bolivia",
            "type": "country",
            "lat": null,
            "lon": null
          },
          {
            "id": "Peru",
            "label": "Peru",
            "type": "country",
            "lat": null,
            "lon": null
          },
          {
            "id": "Guatemala",
            "label": "Guatemala",
            "type": "country",
            "lat": null,
            "lon": null
          }
        ]
      }
    ]
  },
  {
    "id": "Europe & Eurasia",
    "label": "Europe & Eurasia",
    "type": "region",
    "lat": 52.0,
    "lon": 42.5,
    "children": [
      {
        "id": "Europe",
        "label": "Europe",
        "type": "subregion",
        "lat": 54.0,
        "lon": 15.0,
        "children": [
          {
            "id": "United Kingdom",
            "label": "United Kingdom",
            "type": "country",
            "lat": null,
            "lon": null
          },
          {
            "id": "Germany",
            "label": "Germany",
            "type": "country",
            "lat": null,
            "lon": null
          },
          {
            "id": "France",
            "label": "France",
            "type": "country",
            "lat": null,
            "lon": null
          },
          {
            "id": "Norway",
            "label": "Norway",
            "type": "country",
            "lat": null,
            "lon": null
          },
          {
            "id": "Italy",
            "label": "Italy",
            "type": "country",
            "lat": null,
            "lon": null
          },
          {
            "id": "Netherlands",
            "label": "Netherlands",
            "type": "country",
            "lat": null,
            "lon": null
          },
          {
            "id": "Poland",
            "label": "Poland",
            "type": "country",
            "lat": null,
            "lon": null
          },
          {
            "id": "Turkey",
            "label": "Turkey",
            "type": "country",
            "lat": null,
            "lon": null
          },
          {
            "id": "Switzerland",
            "label": "Switzerland",
            "type": "country",
            "lat": null,
            "lon": null
          },
          {
            "id": "Albania",
            "label": "Albania",
            "type": "country",
            "lat": null,
            "lon": null
          },
          {
            "id": "Romania",
            "label": "Romania",
            "type": "country",
            "lat": null,
            "lon": null
          },
          {
            "id": "Cyprus",
            "label": "Cyprus",
            "type": "country",
            "lat": null,
            "lon": null
          }
        ]
      },
      {
        "id": "Eurasia",
        "label": "Eurasia",
        "type": "subregion",
        "lat": 50.0,
        "lon": 70.0,
        "children": [
          {
            "id": "Russia",
            "label": "Russia",
            "type": "country",
            "lat": null,
            "lon": null
          },
          {
            "id": "Kazakhstan",
            "label": "Kazakhstan",
            "type": "country",
            "lat": null,
            "lon": null
          },
          {
            "id": "Azerbaijan",
            "label": "Azerbaijan",
            "type": "country",
            "lat": null,
            "lon": null
          },
          {
            "id": "Turkmenistan",
            "label": "Turkmenistan",
            "type": "country",
            "lat": null,
            "lon": null
          },
          {
            "id": "Uzbekistan",
            "label": "Uzbekistan",
            "type": "country",
            "lat": null,
            "lon": null
          }
        ]
      }
    ]
  },
  {
    "id": "MENA",
    "label": "Middle East & North Africa",
    "type": "region",
    "lat": 25.333333333333332,
    "lon": 45.666666666666664,
    "children": [
      {
        "id": "Middle East",
        "label": "Middle East",
        "type": "subregion",
        "lat": 25.0,
        "lon": 50.0,
        "children": [
          {
            "id": "Saudi Arabia",
            "label": "Saudi Arabia",
            "type": "country",
            "lat": 23.8859,
            "lon": 45.0792
          },
          {
            "id": "UAE",
            "label": "UAE",
            "type": "country",
            "lat": 23.4241,
            "lon": 53.8478
          },
          {
            "id": "Oman",
            "label": "Oman",
            "type": "country",
            "lat": 21.4735,
            "lon": 55.9754
          },
          {
            "id": "Kuwait",
            "label": "Kuwait",
            "type": "country",
            "lat": 29.3117,
            "lon": 47.4818
          },
          {
            "id": "Qatar",
            "label": "Qatar",
            "type": "country",
            "lat": 25.3548,
            "lon": 51.1839
          },
          {
            "id": "Bahrain",
            "label": "Bahrain",
            "type": "country",
            "lat": 26.0667,
            "lon": 50.5577
          },
          {
            "id": "Iraq",
            "label": "Iraq",
            "type": "country",
            "lat": 33.2232,
            "lon": 43.6793
          },
          {
            "id": "Jordan",
            "label": "Jordan",
            "type": "country",
            "lat": 31.24,
            "lon": 36.51
          },
          {
            "id": "Syria",
            "label": "Syria",
            "type": "country",
            "lat": 34.8,
            "lon": 38.99
          },
          {
            "id": "Lebanon",
            "label": "Lebanon",
            "type": "country",
            "lat": 33.85,
            "lon": 35.86
          },
          {
            "id": "Yemen",
            "label": "Yemen",
            "type": "country",
            "lat": 15.55,
            "lon": 48.52
          },
          {
            "id": "Iran",
            "label": "Iran",
            "type": "country",
            "lat": 32.43,
            "lon": 53.69
          }
        ]
      },
      {
        "id": "North Africa",
        "label": "North Africa",
        "type": "subregion",
        "lat": 28.0,
        "lon": 10.0,
        "children": [
          {
            "id": "Egypt",
            "label": "Egypt",
            "type": "country",
            "lat": 26.8206,
            "lon": 30.8025
          },
          {
            "id": "Libya",
            "label": "Libya",
            "type": "country",
            "lat": 26.3351,
            "lon": 17.2283
          },
          {
            "id": "Algeria",
            "label": "Algeria",
            "type": "country",
            "lat": 28.0339,
            "lon": 1.6596
          },
          {
            "id": "Tunisia",
            "label": "Tunisia",
            "type": "country",
            "lat": 33.8869,
            "lon": 9.5375
          },
          {
            "id": "Morocco",
            "label": "Morocco",
            "type": "country",
            "lat": 31.7917,
            "lon": -7.0926
          }
        ]
      },
      {
        "id": "South Asia",
        "label": "South Asia",
        "type": "subregion",
        "lat": 23.0,
        "lon": 77.0,
        "children": [
          {
            "id": "India",
            "label": "India",
            "type": "country",
            "lat": 20.5937,
            "lon": 78.9629
          },
          {
            "id": "Pakistan",
            "label": "Pakistan",
            "type": "country",
            "lat": 30.3753,
            "lon": 69.3451
          },
          {
            "id": "Sri Lanka",
            "label": "Sri Lanka",
            "type": "country",
            "lat": 7.87,
            "lon": 80.77
          },
          {
            "id": "Bangladesh",
            "label": "Bangladesh",
            "type": "country",
            "lat": 23.68,
            "lon": 90.35
          }
        ]
      }
    ]
  },
  {
    "id": "Sub-Saharan Africa",
    "label": "Sub-Saharan Africa",
    "type": "region",
    "lat": -5.0,
    "lon": 20.0,
    "children": [
      {
        "id": "Sub-Saharan Africa",
        "label": "Sub-Saharan Africa",
        "type": "subregion",
        "lat": -5.0,
        "lon": 20.0,
        "children": [
          {
            "id": "Nigeria",
            "label": "Nigeria",
            "type": "country",
            "lat": 9.08,
            "lon": 8.68
          },
          {
            "id": "Angola",
            "label": "Angola",
            "type": "country",
            "lat": -11.2,
            "lon": 17.87
          },
          {
            "id": "Kenya",
            "label": "Kenya",
            "type": "country",
            "lat": 0.02,
            "lon": 37.91
          },
          {
            "id": "Ghana",
            "label": "Ghana",
            "type": "country",
            "lat": 7.95,
            "lon": -1.02
          },
          {
            "id": "Mozambique",
            "label": "Mozambique",
            "type": "country",
            "lat": -18.66,
            "lon": 35.53
          },
          {
            "id": "South Africa",
            "label": "South Africa",
            "type": "country",
            "lat": -30.56,
            "lon": 22.94
          },
          {
            "id": "Namibia",
            "label": "Namibia",
            "type": "country",
            "lat": -22.56,
            "lon": 17.08
          },
          {
            "id": "Gabon",
            "label": "Gabon",
            "type": "country",
            "lat": -0.8,
            "lon": 11.61
          },
          {
            "id": "Cameroon",
            "label": "Cameroon",
            "type": "country",
            "lat": 7.37,
            "lon": 12.35
          },
          {
            "id": "Ivory Coast",
            "label": "Ivory Coast",
            "type": "country",
            "lat": 7.54,
            "lon": -5.55
          },
          {
            "id": "Congo",
            "label": "Congo",
            "type": "country",
            "lat": -0.23,
            "lon": 15.83
          },
          {
            "id": "Equatorial Guinea",
            "label": "Equatorial Guinea",
            "type": "country",
            "lat": 1.65,
            "lon": 10.27
          },
          {
            "id": "Mauritania",
            "label": "Mauritania",
            "type": "country",
            "lat": 21.01,
            "lon": -10.94
          }
        ]
      }
    ]
  },
  {
    "id": "APAC",
    "label": "Asia Pacific",
    "type": "region",
    "lat": 20.0,
    "lon": 100.0,
    "children": [
      {
        "id": "APAC",
        "label": "Asia Pacific",
        "type": "subregion",
        "lat": 20.0,
        "lon": 100.0,
        "children": [
          {
            "id": "China",
            "label": "China",
            "type": "country",
            "lat": 35.8617,
            "lon": 104.1954
          },
          {
            "id": "Thailand",
            "label": "Thailand",
            "type": "country",
            "lat": 15.87,
            "lon": 100.9925
          },
          {
            "id": "Malaysia",
            "label": "Malaysia",
            "type": "country",
            "lat": 4.2105,
            "lon": 101.9758
          },
          {
            "id": "Indonesia",
            "label": "Indonesia",
            "type": "country",
            "lat": -0.7893,
            "lon": 113.9213
          },
          {
            "id": "Vietnam",
            "label": "Vietnam",
            "type": "country",
            "lat": 14.0583,
            "lon": 108.2772
          },
          {
            "id": "Japan",
            "label": "Japan",
            "type": "country",
            "lat": 36.2048,
            "lon": 138.2529
          },
          {
            "id": "South Korea",
            "label": "South Korea",
            "type": "country",
            "lat": 35.9078,
            "lon": 127.7669
          },
          {
            "id": "Myanmar",
            "label": "Myanmar",
            "type": "country",
            "lat": 21.9162,
            "lon": 95.956
          },
          {
            "id": "Australia",
            "label": "Australia",
            "type": "country",
            "lat": -25.2744,
            "lon": 133.7751
          },
          {
            "id": "New Zealand",
            "label": "New Zealand",
            "type": "country",
            "lat": -40.9006,
            "lon": 174.886
          },
          {
            "id": "Papua New Guinea",
            "label": "Papua New Guinea",
            "type": "country",
            "lat": -6.3149,
            "lon": 143.9555
          }
        ]
      }
    ]
  }
]